$GNGGA,073113.40,3105.79615301,N,12117.47287248,E,4,34,0.6,4.1837,M,11.0495,M,1.4,74*51
$GNRMC,073113.40,D,3105.79615301,N,12117.47287248,E,0.012,325.9,280326,6.5,W,R,S*5E
$GNGST,073113.40,2.21,0.01,0.01,49.4292,0.010,0.011,0.026*7E
$GNGGA,073113.50,3105.79615182,N,12117.47287198,E,4,34,0.6,4.1867,M,11.0495,M,0.5,74*52
$GNRMC,073113.50,D,3105.79615182,N,12117.47287198,E,0.031,317.6,280326,6.5,W,R,S*57
$GNGST,073113.50,2.21,0.01,0.01,49.4400,0.010,0.011,0.026*72
$GNGGA,073113.60,3105.79615107,N,12117.47287132,E,4,34,0.6,4.1806,M,11.0495,M,0.6,74*58
$GNRMC,073113.60,D,3105.79615107,N,12117.47287132,E,0.035,291.5,280326,6.5,W,R,S*51
$GNGST,073113.60,2.21,0.01,0.01,49.3937,0.010,0.011,0.026*7F
$GNGGA,073113.70,3105.79614970,N,12117.47286883,E,4,34,0.6,4.1848,M,11.0495,M,0.7,74*59
$GNRMC,073113.70,D,3105.79614970,N,12117.47286883,E,0.032,267.3,280326,6.5,W,R,S*53
$GNGST,073113.70,2.21,0.01,0.01,49.4481,0.010,0.011,0.026*79
$GNGGA,073113.80,3105.79615070,N,12117.47286930,E,4,34,0.6,4.1786,M,11.0495,M,0.8,74*55
$GNRMC,073113.80,D,3105.79615070,N,12117.47286930,E,0.023,273.1,280326,6.5,W,R,S*5A
$GNGST,073113.80,2.21,0.01,0.01,49.4070,0.010,0.011,0.026*7C
$GNGGA,073113.90,3105.79615016,N,12117.47286856,E,4,34,0.6,4.1804,M,11.0495,M,0.9,74*51
$GNRMC,073113.90,D,3105.79615016,N,12117.47286856,E,0.020,271.5,280326,6.5,W,R,S*5F
$GNGST,073113.90,2.21,0.01,0.01,49.4093,0.010,0.011,0.026*70
$GNGGA,073114.00,3105.79615116,N,12117.47286897,E,4,34,0.6,4.1850,M,11.0495,M,1.0,74*5A
$GNRMC,073114.00,D,3105.79615116,N,12117.47286897,E,0.019,289.1,280326,6.5,W,R,S*54
$GNGST,073114.00,2.21,0.01,0.01,49.4368,0.010,0.011,0.026*79
$GNGGA,073114.10,3105.79615121,N,12117.47286676,E,4,34,0.6,4.1860,M,11.0495,M,1.1,74*5C
$GNRMC,073114.10,D,3105.79615121,N,12117.47286676,E,0.023,288.8,280326,6.5,W,R,S*51
$GNGST,073114.10,2.21,0.01,0.01,49.4098,0.010,0.011,0.026*74
$GNGGA,073114.20,3105.79615103,N,12117.47286713,E,4,34,0.6,4.1860,M,11.0495,M,1.2,74*5E
$GNRMC,073114.20,D,3105.79615103,N,12117.47286713,E,0.026,289.2,280326,6.5,W,R,S*5E
$GNGST,073114.20,2.21,0.01,0.01,49.4343,0.010,0.011,0.026*72
$GNGGA,073114.30,3105.79615052,N,12117.47286559,E,4,34,0.6,4.1871,M,11.0495,M,1.3,74*57
$GNRMC,073114.30,D,3105.79615052,N,12117.47286559,E,0.031,291.8,280326,6.5,W,R,S*53
$GNGST,073114.30,2.21,0.01,0.01,48.8445,0.010,0.011,0.026*7F
$GNGGA,073114.40,3105.79615007,N,12117.47286451,E,4,34,0.6,4.1876,M,11.0495,M,1.4,74*59
$GNRMC,073114.40,D,3105.79615007,N,12117.47286451,E,0.030,292.8,280326,6.5,W,R,S*5F
$GNGST,073114.40,2.21,0.01,0.01,48.8269,0.010,0.011,0.026*70
$GNGGA,073114.50,3105.79615057,N,12117.47286424,E,4,34,0.6,4.1856,M,11.0495,M,0.5,74*5D
$GNRMC,073114.50,D,3105.79615057,N,12117.47286424,E,0.032,288.5,280326,6.5,W,R,S*5D
$GNGST,073114.50,2.21,0.01,0.01,48.8277,0.010,0.011,0.026*7E
$GNGGA,073114.60,3105.79614972,N,12117.47286213,E,4,34,0.6,4.1869,M,11.0495,M,0.6,74*5C
$GNRMC,073114.60,D,3105.79614972,N,12117.47286213,E,0.033,287.0,280326,6.5,W,R,S*58
$GNGST,073114.60,2.21,0.01,0.01,48.8223,0.010,0.011,0.026*7C
$GNGGA,073114.70,3105.79614930,N,12117.47285981,E,4,34,0.6,4.1871,M,11.0495,M,0.7,74*50
$GNRMC,073114.70,D,3105.79614930,N,12117.47285981,E,0.036,286.3,280326,6.5,W,R,S*5B
$GNGST,073114.70,2.21,0.01,0.01,48.8426,0.010,0.011,0.026*7E
$GNGGA,073114.80,3105.79614920,N,12117.47285800,E,4,34,0.6,4.1863,M,11.0495,M,0.8,74*5A
$GNRMC,073114.80,D,3105.79614920,N,12117.47285800,E,0.039,286.9,280326,6.5,W,R,S*58
$GNGST,073114.80,2.21,0.01,0.01,48.7550,0.010,0.011,0.026*7E
$GNGGA,073114.90,3105.79614851,N,12117.47285540,E,4,34,0.6,4.1867,M,11.0495,M,0.9,74*50
$GNRMC,073114.90,D,3105.79614851,N,12117.47285540,E,0.042,284.1,280326,6.5,W,R,S*51
$GNGST,073114.90,2.21,0.01,0.01,48.7399,0.010,0.011,0.026*7C
$GNGGA,073115.00,3105.79614886,N,12117.47285362,E,4,34,0.6,4.1832,M,11.0495,M,1.0,74*5C
$GNRMC,073115.00,D,3105.79614886,N,12117.47285362,E,0.049,277.1,280326,6.5,W,R,S*52
$GNGST,073115.00,2.21,0.01,0.01,48.7600,0.010,0.011,0.026*71
$GNGGA,073115.10,3105.79614862,N,12117.47285085,E,4,34,0.6,4.1834,M,11.0495,M,1.1,74*5A
$GNRMC,073115.10,D,3105.79614862,N,12117.47285085,E,0.057,276.4,280326,6.5,W,R,S*58
$GNGST,073115.10,2.23,0.01,0.01,48.7512,0.010,0.011,0.026*72
$GNGGA,073115.20,3105.79614904,N,12117.47284537,E,4,33,0.7,4.1844,M,11.0495,M,1.2,74*57
$GNRMC,073115.20,D,3105.79614904,N,12117.47284537,E,0.081,285.4,280326,6.5,W,R,S*50
$GNGST,073115.20,2.23,0.01,0.01,50.5701,0.010,0.011,0.027*7B
$GNGGA,073115.30,3105.79615100,N,12117.47284027,E,4,33,0.7,4.1859,M,11.0495,M,1.3,74*52
$GNRMC,073115.30,D,3105.79615100,N,12117.47284027,E,0.151,294.5,280326,6.5,W,R,S*55
$GNGST,073115.30,2.23,0.01,0.01,50.5997,0.010,0.011,0.027*7B
$GNGGA,073115.40,3105.79615274,N,12117.47283116,E,4,33,0.7,4.1856,M,11.0495,M,1.4,74*59
$GNRMC,073115.40,D,3105.79615274,N,12117.47283116,E,0.265,290.3,280326,6.5,W,R,S*50
$GNGST,073115.40,2.23,0.01,0.01,50.6225,0.010,0.011,0.027*7D
$GNGGA,073115.50,3105.79615320,N,12117.47282154,E,4,33,0.7,4.1876,M,11.0495,M,0.5,74*5D
$GNRMC,073115.50,D,3105.79615320,N,12117.47282154,E,0.324,279.0,280326,6.5,W,R,S*56
$GNGST,073115.50,2.23,0.01,0.01,50.5694,0.010,0.011,0.027*71
$GNGGA,073115.60,3105.79614934,N,12117.47281221,E,4,32,0.7,4.1806,M,11.0495,M,0.6,74*57
$GNRMC,073115.60,D,3105.79614934,N,12117.47281221,E,0.328,261.9,280326,6.5,W,R,S*55
$GNGST,073115.60,2.23,0.01,0.01,50.5901,0.010,0.011,0.027*71
$GNGGA,073115.70,3105.79614284,N,12117.47280159,E,4,32,0.7,4.1718,M,11.0495,M,0.7,74*5A
$GNRMC,073115.70,D,3105.79614284,N,12117.47280159,E,0.365,242.7,280326,6.5,W,R,S*5F
$GNGST,073115.70,2.23,0.01,0.01,50.5989,0.010,0.011,0.027*70
$GNGGA,073115.80,3105.79613727,N,12117.47278759,E,4,32,0.7,4.1687,M,11.0495,M,0.8,74*57
$GNRMC,073115.80,D,3105.79613727,N,12117.47278759,E,0.415,241.9,280326,6.5,W,R,S*57
$GNGST,073115.80,2.23,0.01,0.01,50.6117,0.010,0.011,0.027*73
$GNGGA,073115.90,3105.79613683,N,12117.47277246,E,4,32,0.7,4.1715,M,11.0495,M,0.9,74*56
$GNRMC,073115.90,D,3105.79613683,N,12117.47277246,E,0.429,255.1,280326,6.5,W,R,S*5F
$GNGST,073115.90,2.23,0.01,0.01,50.6008,0.010,0.011,0.027*7D
$GNGGA,073116.00,3105.79613853,N,12117.47275795,E,4,32,0.7,4.1732,M,11.0495,M,1.0,74*5B
$GNRMC,073116.00,D,3105.79613853,N,12117.47275795,E,0.504,279.1,280326,6.5,W,R,S*5F
$GNGST,073116.00,2.23,0.01,0.01,50.6090,0.010,0.011,0.027*76
$GNGGA,073116.10,3105.79614266,N,12117.47274054,E,4,32,0.7,4.1714,M,11.0495,M,1.1,74*5F
$GNRMC,073116.10,D,3105.79614266,N,12117.47274054,E,0.619,293.0,280326,6.5,W,R,S*54
$GNGST,073116.10,2.02,0.01,0.01,50.6344,0.010,0.011,0.027*7E
$GNGGA,073116.20,3105.79615088,N,12117.47271908,E,4,32,0.7,4.1695,M,11.0495,M,1.2,74*51
$GNRMC,073116.20,D,3105.79615088,N,12117.47271908,E,0.798,296.6,280326,6.5,W,R,S*5A
$GNGST,073116.20,2.02,0.01,0.01,50.6584,0.010,0.011,0.027*77
$GNGGA,073116.30,3105.79615822,N,12117.47269064,E,4,32,0.7,4.1910,M,11.0495,M,1.3,74*51
$GNRMC,073116.30,D,3105.79615822,N,12117.47269064,E,0.962,300.2,280326,6.5,W,R,S*58
$GNGST,073116.30,2.02,0.01,0.01,50.5977,0.010,0.011,0.027*75
$GNGGA,073116.40,3105.79617453,N,12117.47265811,E,4,32,0.7,4.1801,M,11.0495,M,1.4,74*5E
$GNRMC,073116.40,D,3105.79617453,N,12117.47265811,E,1.223,299.6,280326,6.5,W,R,S*5B
$GNGST,073116.40,2.02,0.01,0.01,50.6301,0.010,0.011,0.027*7A
$GNGGA,073116.50,3105.79619161,N,12117.47262187,E,4,32,0.7,4.1698,M,11.0495,M,0.5,74*5A
$GNRMC,073116.50,D,3105.79619161,N,12117.47262187,E,1.445,299.0,280326,6.5,W,R,S*51
$GNGST,073116.50,2.02,0.01,0.01,50.7154,0.010,0.011,0.027*78
$GNGGA,073116.60,3105.79621135,N,12117.47258222,E,4,32,0.7,4.1602,M,11.0494,M,0.6,74*57
$GNRMC,073116.60,D,3105.79621135,N,12117.47258222,E,1.565,300.5,280326,6.5,W,R,S*5A
$GNGST,073116.60,2.02,0.01,0.01,50.8072,0.010,0.011,0.027*71
$GNGGA,073116.70,3105.79623078,N,12117.47253930,E,4,32,0.7,4.1621,M,11.0494,M,0.7,74*5F
$GNRMC,073116.70,D,3105.79623078,N,12117.47253930,E,1.569,301.2,280326,6.5,W,R,S*58
$GNGST,073116.70,2.02,0.01,0.01,50.8986,0.010,0.011,0.027*72
$GNGGA,073116.80,3105.79625319,N,12117.47249568,E,4,32,0.7,4.1657,M,11.0494,M,0.8,74*56
$GNRMC,073116.80,D,3105.79625319,N,12117.47249568,E,1.489,302.1,280326,6.5,W,R,S*50
$GNGST,073116.80,2.02,0.01,0.01,50.9399,0.010,0.011,0.027*78
$GNGGA,073116.90,3105.79627064,N,12117.47245036,E,4,32,0.7,4.1653,M,11.0494,M,0.9,74*5B
$GNRMC,073116.90,D,3105.79627064,N,12117.47245036,E,1.405,296.7,280326,6.5,W,R,S*56
$GNGST,073116.90,2.02,0.01,0.01,50.9820,0.010,0.011,0.027*70
$GNGGA,073117.00,3105.79628584,N,12117.47240658,E,4,32,0.7,4.1585,M,11.0494,M,1.0,74*5C
$GNRMC,073117.00,D,3105.79628584,N,12117.47240658,E,1.451,290.7,280326,6.5,W,R,S*56
$GNGST,073117.00,2.02,0.01,0.01,51.0505,0.010,0.011,0.027*7A
$GNGGA,073117.10,3105.79629642,N,12117.47236157,E,4,32,0.7,4.1311,M,11.0494,M,1.1,74*56
$GNRMC,073117.10,D,3105.79629642,N,12117.47236157,E,1.454,284.2,280326,6.5,W,R,S*53
$GNGST,073117.10,1.93,0.01,0.01,51.1011,0.010,0.011,0.027*71
$GNGGA,073117.20,3105.79630199,N,12117.47230896,E,4,32,0.7,4.1260,M,11.0494,M,1.2,74*5A
$GNRMC,073117.20,D,3105.79630199,N,12117.47230896,E,1.668,275.6,280326,6.5,W,R,S*5C
$GNGST,073117.20,1.93,0.01,0.01,51.1564,0.010,0.011,0.027*75
$GNGGA,073117.30,3105.79630755,N,12117.47224560,E,4,32,0.7,4.1246,M,11.0494,M,1.3,74*59
$GNRMC,073117.30,D,3105.79630755,N,12117.47224560,E,1.987,274.0,280326,6.5,W,R,S*53
$GNGST,073117.30,1.93,0.01,0.01,51.1820,0.010,0.011,0.027*79
$GNGGA,073117.40,3105.79631777,N,12117.47218606,E,4,32,0.7,4.1262,M,11.0494,M,1.4,74*52
$GNRMC,073117.40,D,3105.79631777,N,12117.47218606,E,2.060,279.0,280326,6.5,W,R,S*57
$GNGST,073117.40,1.93,0.01,0.01,51.2220,0.010,0.011,0.027*77
$GNGGA,073117.50,3105.79632647,N,12117.47212949,E,4,32,0.7,4.1304,M,11.0494,M,0.5,74*5D
$GNRMC,073117.50,D,3105.79632647,N,12117.47212949,E,1.876,282.6,280326,6.5,W,R,S*57
$GNGST,073117.50,1.93,0.01,0.01,51.2076,0.010,0.011,0.027*77
$GNGGA,073117.60,3105.79633698,N,12117.47207582,E,4,32,0.7,4.1151,M,11.0494,M,0.6,74*53
$GNRMC,073117.60,D,3105.79633698,N,12117.47207582,E,1.738,285.0,280326,6.5,W,R,S*5C
$GNGST,073117.60,1.93,0.01,0.01,52.7670,0.010,0.011,0.027*72
$GNGGA,073117.70,3105.79634841,N,12117.47201530,E,4,32,0.7,4.1163,M,11.0494,M,0.7,74*50
$GNRMC,073117.70,D,3105.79634841,N,12117.47201530,E,1.740,285.6,280326,6.5,W,R,S*56
$GNGST,073117.70,1.93,0.01,0.01,52.8213,0.010,0.011,0.027*7D
$GNGGA,073117.80,3105.79636324,N,12117.47195446,E,4,32,0.7,4.0933,M,11.0494,M,0.8,74*58
$GNRMC,073117.80,D,3105.79636324,N,12117.47195446,E,1.898,287.8,280326,6.5,W,R,S*5B
$GNGST,073117.80,1.93,0.01,0.01,52.8630,0.010,0.011,0.027*77
$GNGGA,073117.90,3105.79637943,N,12117.47189484,E,4,32,0.7,4.0742,M,11.0494,M,0.9,74*59
$GNRMC,073117.90,D,3105.79637943,N,12117.47189484,E,2.027,288.6,280326,6.5,W,R,S*5D
$GNGST,073117.90,1.93,0.01,0.01,52.9148,0.010,0.011,0.027*7F
$GNGGA,073118.00,3105.79639753,N,12117.47183209,E,4,32,0.7,4.0859,M,11.0494,M,1.0,74*5A
$GNRMC,073118.00,D,3105.79639753,N,12117.47183209,E,2.120,289.9,280326,6.5,W,R,S*5B
$GNGST,073118.00,1.93,0.01,0.01,52.9230,0.010,0.011,0.027*75
$GNGGA,073118.10,3105.79641928,N,12117.47176652,E,4,32,0.7,4.0986,M,11.0494,M,1.1,74*54
$GNRMC,073118.10,D,3105.79641928,N,12117.47176652,E,2.195,288.4,280326,6.5,W,R,S*55
$GNGST,073118.10,1.81,0.01,0.01,52.9516,0.010,0.011,0.027*74
$GNGGA,073118.20,3105.79643833,N,12117.47169597,E,4,32,0.7,4.1023,M,11.0494,M,1.2,74*5E
$GNRMC,073118.20,D,3105.79643833,N,12117.47169597,E,2.223,288.6,280326,6.5,W,R,S*57
$GNGST,073118.20,1.81,0.01,0.01,52.9844,0.010,0.011,0.027*7D
$GNGGA,073118.30,3105.79645688,N,12117.47162992,E,4,32,0.7,4.0840,M,11.0494,M,1.3,74*58
$GNRMC,073118.30,D,3105.79645688,N,12117.47162992,E,2.241,288.2,280326,6.5,W,R,S*5C
$GNGST,073118.30,1.81,0.01,0.01,53.0170,0.010,0.011,0.027*7A
$GNGGA,073118.40,3105.79647429,N,12117.47155967,E,4,32,0.7,4.0591,M,11.0494,M,1.4,74*5C
$GNRMC,073118.40,D,3105.79647429,N,12117.47155967,E,2.230,287.6,280326,6.5,W,R,S*53
$GNGST,073118.40,1.81,0.01,0.01,53.0951,0.010,0.011,0.027*76
$GNGGA,073118.50,3105.79649190,N,12117.47147906,E,4,32,0.7,4.0701,M,11.0494,M,0.5,74*5B
$GNRMC,073118.50,D,3105.79649190,N,12117.47147906,E,2.308,286.4,280326,6.5,W,R,S*56
$GNGST,073118.50,1.81,0.01,0.01,53.1464,0.010,0.011,0.027*7D
$GNGGA,073118.60,3105.79651533,N,12117.47141056,E,4,31,0.7,4.0920,M,11.0494,M,0.6,74*5B
$GNRMC,073118.60,D,3105.79651533,N,12117.47141056,E,2.247,292.1,280326,6.5,W,R,S*51
$GNGST,073118.60,1.81,0.01,0.01,53.9620,0.010,0.011,0.027*74
$GNGGA,073118.70,3105.79654875,N,12117.47135110,E,4,31,0.7,4.0970,M,11.0494,M,0.7,74*54
$GNRMC,073118.70,D,3105.79654875,N,12117.47135110,E,2.300,301.2,280326,6.5,W,R,S*50
$GNGST,073118.70,1.81,0.01,0.01,53.8537,0.010,0.011,0.027*71
$GNGGA,073118.80,3105.79658061,N,12117.47128846,E,4,31,0.7,4.0900,M,11.0494,M,0.8,74*54
$GNRMC,073118.80,D,3105.79658061,N,12117.47128846,E,2.340,303.5,280326,6.5,W,R,S*59
$GNGST,073118.80,1.81,0.01,0.01,53.7862,0.010,0.011,0.027*7C
$GNGGA,073118.90,3105.79661428,N,12117.47122720,E,4,31,0.7,4.0598,M,11.0493,M,0.9,74*58
$GNRMC,073118.90,D,3105.79661428,N,12117.47122720,E,2.279,305.5,280326,6.5,W,R,S*53
$GNGST,073118.90,1.81,0.01,0.01,53.7772,0.010,0.011,0.027*73
$GNGGA,073119.00,3105.79665103,N,12117.47116386,E,4,31,0.7,4.0375,M,11.0493,M,1.0,74*5A
$GNRMC,073119.00,D,3105.79665103,N,12117.47116386,E,2.350,305.6,280326,6.5,W,R,S*55
$GNGST,073119.00,1.81,0.01,0.01,53.8299,0.010,0.011,0.027*74
$GNGGA,073119.10,3105.79668714,N,12117.47109294,E,4,31,0.7,4.0668,M,11.0493,M,1.1,74*52
$GNRMC,073119.10,D,3105.79668714,N,12117.47109294,E,2.405,306.3,280326,6.5,W,R,S*54
$GNGST,073119.10,2.19,0.01,0.01,53.8470,0.010,0.011,0.027*76
$GNGGA,073119.20,3105.79672713,N,12117.47102693,E,4,31,0.7,4.0830,M,11.0493,M,1.2,74*55
$GNRMC,073119.20,D,3105.79672713,N,12117.47102693,E,2.568,303.9,280326,6.5,W,R,S*56
$GNGST,073119.20,2.19,0.01,0.01,53.9061,0.010,0.011,0.027*70
$GNGGA,073119.30,3105.79676587,N,12117.47096457,E,4,31,0.7,4.0646,M,11.0493,M,1.3,74*57
$GNRMC,073119.30,D,3105.79676587,N,12117.47096457,E,2.496,305.6,280326,6.5,W,R,S*53
$GNGST,073119.30,2.19,0.01,0.01,53.9078,0.010,0.011,0.027*79
$GNGGA,073119.40,3105.79679813,N,12117.47090226,E,4,30,0.7,4.0542,M,11.0493,M,1.4,74*58
$GNRMC,073119.40,D,3105.79679813,N,12117.47090226,E,2.371,301.7,280326,6.5,W,R,S*56
$GNGST,073119.40,2.19,0.01,0.01,53.9371,0.010,0.011,0.027*74
$GNGGA,073119.50,3105.79682982,N,12117.47083552,E,4,31,0.7,4.0465,M,11.0493,M,0.5,74*57
$GNRMC,073119.50,D,3105.79682982,N,12117.47083552,E,2.350,302.7,280326,6.5,W,R,S*5C
$GNGST,073119.50,2.19,0.01,0.01,54.8185,0.010,0.011,0.027*7A
$GNGGA,073119.60,3105.79686293,N,12117.47076420,E,4,30,0.7,4.0574,M,11.0493,M,0.6,74*56
$GNRMC,073119.60,D,3105.79686293,N,12117.47076420,E,2.386,299.9,280326,6.5,W,R,S*58
$GNGST,073119.60,2.19,0.01,0.01,54.8292,0.010,0.011,0.028*73
$GNGGA,073119.70,3105.79690387,N,12117.47069670,E,4,31,0.7,4.0797,M,11.0493,M,0.7,74*52
$GNRMC,073119.70,D,3105.79690387,N,12117.47069670,E,2.594,304.7,280326,6.5,W,R,S*5D
$GNGST,073119.70,2.19,0.01,0.01,54.8283,0.010,0.011,0.027*7D
$GNGGA,073119.80,3105.79694616,N,12117.47063363,E,4,29,0.8,4.0807,M,11.0493,M,0.8,74*56
$GNRMC,073119.80,D,3105.79694616,N,12117.47063363,E,2.572,306.0,280326,6.5,W,R,S*5B
$GNGST,073119.80,2.19,0.01,0.01,59.2509,0.010,0.012,0.028*7C
$GNGGA,073119.90,3105.79698650,N,12117.47057054,E,4,29,0.8,4.0500,M,11.0493,M,0.9,74*52
$GNRMC,073119.90,D,3105.79698650,N,12117.47057054,E,2.531,307.8,280326,6.5,W,R,S*5A
$GNGST,073119.90,2.19,0.01,0.01,59.2393,0.010,0.012,0.028*78
$GNGGA,073120.00,3105.79702591,N,12117.47050094,E,4,31,0.7,4.0379,M,11.0493,M,1.0,74*50
$GNRMC,073120.00,D,3105.79702591,N,12117.47050094,E,2.485,308.0,280326,6.5,W,R,S*57
$GNGST,073120.00,2.19,0.01,0.01,54.8608,0.010,0.011,0.027*77
$GNGGA,073120.10,3105.79706984,N,12117.47043399,E,4,31,0.7,4.0183,M,11.0493,M,1.1,74*57
$GNRMC,073120.10,D,3105.79706984,N,12117.47043399,E,2.590,309.6,280326,6.5,W,R,S*54
$GNGST,073120.10,2.06,0.01,0.01,54.8419,0.010,0.011,0.027*7A
$GNGGA,073120.20,3105.79711547,N,12117.47036183,E,4,30,0.7,4.0450,M,11.0493,M,1.2,74*53
$GNRMC,073120.20,D,3105.79711547,N,12117.47036183,E,2.731,306.8,280326,6.5,W,R,S*51
$GNGST,073120.20,2.06,0.01,0.01,54.9379,0.010,0.011,0.028*76
$GNGGA,073120.30,3105.79716029,N,12117.47029500,E,4,30,0.7,4.0570,M,11.0493,M,1.3,74*5B
$GNRMC,073120.30,D,3105.79716029,N,12117.47029500,E,2.797,304.8,280326,6.5,W,R,S*55
$GNGST,073120.30,2.06,0.01,0.01,55.2995,0.010,0.011,0.027*7A
$GNGGA,073120.40,3105.79720364,N,12117.47023188,E,4,31,0.7,4.0265,M,11.0493,M,1.4,74*58
$GNRMC,073120.40,D,3105.79720364,N,12117.47023188,E,2.661,307.5,280326,6.5,W,R,S*55
$GNGST,073120.40,2.06,0.01,0.01,55.3035,0.010,0.011,0.027*7F
$GNGGA,073120.50,3105.79724323,N,12117.47016820,E,4,31,0.7,4.0023,M,11.0493,M,0.5,74*53
$GNRMC,073120.50,D,3105.79724323,N,12117.47016820,E,2.368,308.5,280326,6.5,W,R,S*5D
$GNGST,073120.50,2.06,0.01,0.01,55.2057,0.010,0.011,0.027*7B
$GNGGA,073120.60,3105.79728002,N,12117.47010423,E,4,31,0.7,3.9909,M,11.0493,M,0.6,74*59
$GNRMC,073120.60,D,3105.79728002,N,12117.47010423,E,2.220,305.1,280326,6.5,W,R,S*5F
$GNGST,073120.60,2.06,0.01,0.01,55.2201,0.010,0.011,0.027*79
$GNGGA,073120.70,3105.79732219,N,12117.47003529,E,4,31,0.7,4.0061,M,11.0493,M,0.7,74*5A
$GNRMC,073120.70,D,3105.79732219,N,12117.47003529,E,2.348,303.5,280326,6.5,W,R,S*59
$GNGST,073120.70,2.06,0.01,0.01,55.2831,0.010,0.011,0.027*71
$GNGGA,073120.80,3105.79736941,N,12117.46996580,E,4,31,0.7,4.0101,M,11.0493,M,0.8,74*58
$GNRMC,073120.80,D,3105.79736941,N,12117.46996580,E,2.679,307.7,280326,6.5,W,R,S*52
$GNGST,073120.80,2.06,0.01,0.01,55.3091,0.010,0.011,0.027*7D
$GNGGA,073120.90,3105.79741202,N,12117.46990164,E,4,31,0.7,3.9948,M,11.0493,M,0.9,74*57
$GNRMC,073120.90,D,3105.79741202,N,12117.46990164,E,2.732,308.9,280326,6.5,W,R,S*58
$GNGST,073120.90,2.06,0.01,0.01,55.3052,0.010,0.011,0.027*73
$GNGGA,073121.00,3105.79745375,N,12117.46983579,E,4,31,0.7,3.9695,M,11.0492,M,1.0,74*56
$GNRMC,073121.00,D,3105.79745375,N,12117.46983579,E,2.605,309.8,280326,6.5,W,R,S*5A
$GNGST,073121.00,2.06,0.01,0.01,55.2767,0.010,0.011,0.027*7B
$GNGGA,073121.10,3105.79749405,N,12117.46976780,E,4,31,0.7,3.9694,M,11.0492,M,1.1,74*55
$GNRMC,073121.10,D,3105.79749405,N,12117.46976780,E,2.514,305.7,280326,6.5,W,R,S*59
$GNGST,073121.10,2.02,0.01,0.01,55.2634,0.010,0.011,0.027*79
$GNGGA,073121.20,3105.79753953,N,12117.46970049,E,4,31,0.7,3.9770,M,11.0492,M,1.2,74*5F
$GNRMC,073121.20,D,3105.79753953,N,12117.46970049,E,2.514,306.4,280326,6.5,W,R,S*5B
$GNGST,073121.20,2.02,0.01,0.01,55.2595,0.010,0.011,0.027*72
$GNGGA,073121.30,3105.79758176,N,12117.46963119,E,4,31,0.7,3.9991,M,11.0492,M,1.3,74*5C
$GNRMC,073121.30,D,3105.79758176,N,12117.46963119,E,2.605,306.7,280326,6.5,W,R,S*58
$GNGST,073121.30,2.02,0.01,0.01,55.2840,0.010,0.011,0.027*76
$GNGGA,073121.40,3105.79762490,N,12117.46956723,E,4,31,0.7,3.9932,M,11.0492,M,1.4,74*58
$GNRMC,073121.40,D,3105.79762490,N,12117.46956723,E,2.540,309.5,280326,6.5,W,R,S*5D
$GNGST,073121.40,2.02,0.01,0.01,55.3358,0.010,0.011,0.027*72
$GNGGA,073121.50,3105.79766644,N,12117.46950440,E,4,31,0.7,3.9771,M,11.0492,M,0.5,74*5F
$GNRMC,073121.50,D,3105.79766644,N,12117.46950440,E,2.495,308.5,280326,6.5,W,R,S*5B
$GNGST,073121.50,2.02,0.01,0.01,55.3038,0.010,0.011,0.027*76
$GNGGA,073121.60,3105.79770796,N,12117.46943919,E,4,31,0.7,3.9696,M,11.0492,M,0.6,74*5D
$GNRMC,073121.60,D,3105.79770796,N,12117.46943919,E,2.517,306.5,280326,6.5,W,R,S*57
$GNGST,073121.60,2.02,0.01,0.01,58.6229,0.010,0.012,0.027*7C
$GNGGA,073121.70,3105.79775269,N,12117.46937281,E,4,31,0.7,3.9709,M,11.0492,M,0.7,74*53
$GNRMC,073121.70,D,3105.79775269,N,12117.46937281,E,2.516,309.7,280326,6.5,W,R,S*53
$GNGST,073121.70,2.02,0.01,0.01,58.5887,0.010,0.012,0.027*70
$GNGGA,073121.80,3105.79780248,N,12117.46931122,E,4,31,0.7,3.9876,M,11.0492,M,0.8,74*51
$GNRMC,073121.80,D,3105.79780248,N,12117.46931122,E,2.619,313.8,280326,6.5,W,R,S*51
$GNGST,073121.80,2.02,0.01,0.01,58.6107,0.010,0.012,0.027*7D
$GNGGA,073121.90,3105.79785345,N,12117.46925503,E,4,31,0.7,3.9765,M,11.0492,M,0.9,74*57
$GNRMC,073121.90,D,3105.79785345,N,12117.46925503,E,2.585,316.8,280326,6.5,W,R,S*58
$GNGST,073121.90,2.02,0.01,0.01,58.5964,0.010,0.012,0.027*72
$GNGGA,073122.00,3105.79790594,N,12117.46919708,E,4,31,0.7,3.9584,M,11.0492,M,1.0,74*50
$GNRMC,073122.00,D,3105.79790594,N,12117.46919708,E,2.599,317.0,280326,6.5,W,R,S*5E
$GNGST,073122.00,2.02,0.01,0.01,58.7479,0.010,0.012,0.027*7B
$GNGGA,073122.10,3105.79795898,N,12117.46913778,E,4,31,0.7,3.9374,M,11.0492,M,1.1,74*50
$GNRMC,073122.10,D,3105.79795898,N,12117.46913778,E,2.661,318.5,280326,6.5,W,R,S*58
$GNGST,073122.10,1.97,0.01,0.01,58.7874,0.010,0.012,0.027*74
$GNGGA,073122.20,3105.79801688,N,12117.46907718,E,4,31,0.7,3.9417,M,11.0492,M,1.2,74*5C
$GNRMC,073122.20,D,3105.79801688,N,12117.46907718,E,2.717,318.7,280326,6.5,W,R,S*57
$GNGST,073122.20,1.97,0.01,0.01,58.8015,0.010,0.012,0.027*77
$GNGGA,073122.30,3105.79807444,N,12117.46902016,E,4,31,0.7,3.9536,M,11.0492,M,1.3,74*56
$GNRMC,073122.30,D,3105.79807444,N,12117.46902016,E,2.769,319.9,280326,6.5,W,R,S*58
$GNGST,073122.30,1.97,0.01,0.01,58.6592,0.010,0.012,0.027*72
$GNGGA,073122.40,3105.79812750,N,12117.46896451,E,4,31,0.7,3.9560,M,11.0492,M,1.4,74*5C
$GNRMC,073122.40,D,3105.79812750,N,12117.46896451,E,2.630,318.1,280326,6.5,W,R,S*52
$GNGST,073122.40,1.97,0.01,0.01,58.6877,0.010,0.012,0.027*73
$GNGGA,073122.50,3105.79817352,N,12117.46890592,E,4,31,0.7,3.9519,M,11.0492,M,0.5,74*58
$GNRMC,073122.50,D,3105.79817352,N,12117.46890592,E,2.451,317.5,280326,6.5,W,R,S*56
$GNGST,073122.50,1.97,0.01,0.01,58.5990,0.010,0.012,0.027*79
$GNGGA,073122.60,3105.79822923,N,12117.46885994,E,4,31,0.7,3.9028,M,11.0492,M,0.6,74*5B
$GNRMC,073122.60,D,3105.79822923,N,12117.46885994,E,2.419,314.0,280326,6.5,W,R,S*5B
$GNGST,073122.60,1.97,0.01,0.01,61.2954,0.010,0.013,0.028*71
$GNGGA,073122.70,3105.79827716,N,12117.46879827,E,4,31,0.7,3.9028,M,11.0492,M,0.7,74*5C
$GNRMC,073122.70,D,3105.79827716,N,12117.46879827,E,2.509,310.5,280326,6.5,W,R,S*5C
$GNGST,073122.70,1.97,0.01,0.01,61.2993,0.010,0.013,0.028*7B
$GNGGA,073122.80,3105.79832781,N,12117.46873521,E,4,31,0.7,3.9119,M,11.0492,M,0.8,74*54
$GNRMC,073122.80,D,3105.79832781,N,12117.46873521,E,2.651,311.8,280326,6.5,W,R,S*5A
$GNGST,073122.80,1.97,0.01,0.01,61.2065,0.011,0.013,0.028*75
$GNGGA,073122.90,3105.79837668,N,12117.46868283,E,4,31,0.7,3.9259,M,11.0492,M,0.9,74*55
$GNRMC,073122.90,D,3105.79837668,N,12117.46868283,E,2.527,315.9,280326,6.5,W,R,S*5A
$GNGST,073122.90,1.97,0.01,0.01,61.2552,0.010,0.013,0.028*74
$GNGGA,073123.00,3105.79842160,N,12117.46862692,E,4,31,0.7,3.9257,M,11.0492,M,1.0,74*58
$GNRMC,073123.00,D,3105.79842160,N,12117.46862692,E,2.339,318.0,280326,6.5,W,R,S*5C
$GNGST,073123.00,1.97,0.01,0.01,61.2746,0.010,0.013,0.028*7B
$GNGGA,073123.10,3105.79846552,N,12117.46857299,E,4,31,0.7,3.9109,M,11.0492,M,1.1,74*58
$GNRMC,073123.10,D,3105.79846552,N,12117.46857299,E,2.230,316.6,280326,6.5,W,R,S*55
$GNGST,073123.10,1.94,0.01,0.01,61.2318,0.011,0.013,0.028*77
$GNGGA,073123.20,3105.79851344,N,12117.46851348,E,4,30,0.8,3.8941,M,11.0492,M,1.2,74*5F
$GNRMC,073123.20,D,3105.79851344,N,12117.46851348,E,2.396,310.3,280326,6.5,W,R,S*54
$GNGST,073123.20,1.94,0.02,0.01,60.3786,0.011,0.014,0.029*72
$GNGGA,073123.30,3105.79855440,N,12117.46844689,E,4,30,0.8,3.9039,M,11.0491,M,1.3,74*50
$GNRMC,073123.30,D,3105.79855440,N,12117.46844689,E,2.564,303.6,280326,6.5,W,R,S*52
$GNGST,073123.30,1.94,0.02,0.01,60.3533,0.011,0.014,0.029*7F
$GNGGA,073123.40,3105.79859296,N,12117.46838143,E,4,30,0.8,3.9123,M,11.0491,M,1.4,74*51
$GNRMC,073123.40,D,3105.79859296,N,12117.46838143,E,2.570,299.4,280326,6.5,W,R,S*5B
$GNGST,073123.40,1.94,0.02,0.01,60.3721,0.011,0.014,0.029*79
$GNGGA,073123.50,3105.79861944,N,12117.46831383,E,4,30,0.8,3.9243,M,11.0491,M,0.5,74*5D
$GNRMC,073123.50,D,3105.79861944,N,12117.46831383,E,2.430,292.4,280326,6.5,W,R,S*5C
$GNGST,073123.50,1.94,0.02,0.01,59.4284,0.011,0.014,0.029*7F
$GNGGA,073123.60,3105.79864485,N,12117.46824915,E,4,29,0.8,3.8911,M,11.0491,M,0.6,74*5C
$GNRMC,073123.60,D,3105.79864485,N,12117.46824915,E,2.099,293.6,280326,6.5,W,R,S*5F
$GNGST,073123.60,1.94,0.02,0.01,59.4070,0.011,0.014,0.029*75
$GNGGA,073123.70,3105.79866937,N,12117.46817828,E,4,29,0.8,3.8813,M,11.0491,M,0.7,74*56
$GNRMC,073123.70,D,3105.79866937,N,12117.46817828,E,2.205,290.5,280326,6.5,W,R,S*50
$GNGST,073123.70,1.94,0.02,0.01,59.4241,0.011,0.014,0.029*74
$GNGGA,073123.80,3105.79869249,N,12117.46809968,E,4,29,0.8,3.8916,M,11.0491,M,0.8,74*55
$GNRMC,073123.80,D,3105.79869249,N,12117.46809968,E,2.348,291.3,280326,6.5,W,R,S*57
$GNGST,073123.80,1.94,0.02,0.01,59.3777,0.011,0.014,0.029*7C
$GNGGA,073123.90,3105.79871647,N,12117.46802743,E,4,29,0.8,3.9023,M,11.0491,M,0.9,74*54
$GNRMC,073123.90,D,3105.79871647,N,12117.46802743,E,2.538,287.3,280326,6.5,W,R,S*5F
$GNGST,073123.90,1.94,0.02,0.01,59.3790,0.011,0.014,0.029*74
$GNGGA,073124.00,3105.79873489,N,12117.46795876,E,4,29,0.8,3.8902,M,11.0491,M,1.0,74*53
$GNRMC,073124.00,D,3105.79873489,N,12117.46795876,E,2.403,287.2,280326,6.5,W,R,S*53
$GNGST,073124.00,1.94,0.02,0.01,59.4315,0.011,0.014,0.029*74
$GNGGA,073124.10,3105.79875244,N,12117.46788614,E,4,30,0.8,3.8804,M,11.0491,M,1.1,74*5B
$GNRMC,073124.10,D,3105.79875244,N,12117.46788614,E,2.195,289.0,280326,6.5,W,R,S*53
$GNGST,073124.10,1.86,0.02,0.01,59.4045,0.011,0.014,0.029*70
$GNGGA,073124.20,3105.79876781,N,12117.46780715,E,4,30,0.8,3.8832,M,11.0491,M,1.2,74*59
$GNRMC,073124.20,D,3105.79876781,N,12117.46780715,E,2.253,283.7,280326,6.5,W,R,S*53
$GNGST,073124.20,1.86,0.02,0.01,59.3800,0.011,0.014,0.029*7D
$GNGGA,073124.30,3105.79878496,N,12117.46772696,E,4,30,0.8,3.8838,M,11.0491,M,1.3,74*5F
$GNRMC,073124.30,D,3105.79878496,N,12117.46772696,E,2.513,281.9,280326,6.5,W,R,S*51
$GNGST,073124.30,1.86,0.02,0.01,59.8796,0.011,0.014,0.029*77
$GNGGA,073124.40,3105.79880168,N,12117.46765073,E,4,29,0.8,3.8776,M,11.0491,M,1.4,74*5A
$GNRMC,073124.40,D,3105.79880168,N,12117.46765073,E,2.597,282.7,280326,6.5,W,R,S*5F
$GNGST,073124.40,1.86,0.02,0.01,59.9176,0.011,0.014,0.029*79
$GNGGA,073124.50,3105.79881376,N,12117.46757375,E,4,29,0.8,3.8564,M,11.0491,M,0.5,74*52
$GNRMC,073124.50,D,3105.79881376,N,12117.46757375,E,2.542,280.9,280326,6.5,W,R,S*52
$GNGST,073124.50,1.86,0.02,0.01,59.9346,0.011,0.014,0.029*79
$GNGGA,073124.60,3105.79882199,N,12117.46749411,E,4,29,0.8,3.8485,M,11.0491,M,0.6,74*56
$GNRMC,073124.60,D,3105.79882199,N,12117.46749411,E,2.407,278.6,280326,6.5,W,R,S*53
$GNGST,073124.60,1.86,0.02,0.01,59.8973,0.011,0.014,0.029*77
$GNGGA,073124.70,3105.79883151,N,12117.46741076,E,4,29,0.8,3.8636,M,11.0491,M,0.7,74*54
$GNRMC,073124.70,D,3105.79883151,N,12117.46741076,E,2.382,277.2,280326,6.5,W,R,S*5B
$GNGST,073124.70,1.86,0.02,0.01,59.8900,0.011,0.014,0.029*72
$GNGGA,073124.80,3105.79884881,N,12117.46733588,E,4,29,0.8,3.8580,M,11.0491,M,0.8,74*58
$GNRMC,073124.80,D,3105.79884881,N,12117.46733588,E,2.451,283.6,280326,6.5,W,R,S*50
$GNGST,073124.80,1.86,0.02,0.01,59.8753,0.011,0.014,0.029*75
$GNGGA,073124.90,3105.79887097,N,12117.46726698,E,4,29,0.8,3.8536,M,11.0491,M,0.9,74*5F
$GNRMC,073124.90,D,3105.79887097,N,12117.46726698,E,2.346,287.8,280326,6.5,W,R,S*50
$GNGST,073124.90,1.86,0.02,0.01,59.8989,0.011,0.014,0.029*7D
$GNGGA,073125.00,3105.79889566,N,12117.46720238,E,4,29,0.8,3.8344,M,11.0491,M,1.0,74*51
$GNRMC,073125.00,D,3105.79889566,N,12117.46720238,E,2.319,294.2,280326,6.5,W,R,S*57
$GNGST,073125.00,1.86,0.02,0.01,59.9419,0.011,0.014,0.029*70
$GNGGA,073125.10,3105.79892110,N,12117.46713310,E,4,29,0.8,3.8231,M,11.0491,M,1.1,74*56
$GNRMC,073125.10,D,3105.79892110,N,12117.46713310,E,2.236,297.7,280326,6.5,W,R,S*58
$GNGST,073125.10,1.61,0.02,0.01,59.9232,0.011,0.014,0.029*77
$GNGGA,073125.20,3105.79894599,N,12117.46705649,E,4,29,0.8,3.8245,M,11.0490,M,1.2,74*59
$GNRMC,073125.20,D,3105.79894599,N,12117.46705649,E,2.368,297.4,280326,6.5,W,R,S*5F
$GNGST,073125.20,1.61,0.02,0.01,59.9113,0.011,0.014,0.029*74
$GNGGA,073125.30,3105.79897214,N,12117.46698021,E,4,29,0.8,3.8321,M,11.0490,M,1.3,74*56
$GNRMC,073125.30,D,3105.79897214,N,12117.46698021,E,2.543,293.8,280326,6.5,W,R,S*55
$GNGST,073125.30,1.61,0.02,0.01,59.9775,0.011,0.014,0.029*73
$GNGGA,073125.40,3105.79899863,N,12117.46690504,E,4,29,0.8,3.8386,M,11.0490,M,0.4,74*54
$GNRMC,073125.40,D,3105.79899863,N,12117.46690504,E,2.556,290.3,280326,6.5,W,R,S*50
$GNGST,073125.40,1.61,0.02,0.01,59.9726,0.011,0.014,0.029*72
$GNGGA,073125.50,3105.79902253,N,12117.46683808,E,4,29,0.8,3.8326,M,11.0490,M,0.5,74*57
$GNRMC,073125.50,D,3105.79902253,N,12117.46683808,E,2.411,289.1,280326,6.5,W,R,S*50
$GNGST,073125.50,1.61,0.02,0.01,59.9657,0.011,0.014,0.029*74
$GNGGA,073125.60,3105.79904327,N,12117.46676809,E,4,31,0.7,3.8070,M,11.0490,M,0.6,74*5E
$GNRMC,073125.60,D,3105.79904327,N,12117.46676809,E,2.320,289.7,280326,6.5,W,R,S*5F
$GNGST,073125.60,1.61,0.01,0.01,60.0239,0.011,0.013,0.027*72
$GNGGA,073125.70,3105.79906381,N,12117.46669803,E,4,31,0.7,3.7957,M,11.0490,M,0.7,74*57
$GNRMC,073125.70,D,3105.79906381,N,12117.46669803,E,2.207,290.4,280326,6.5,W,R,S*5B
$GNGST,073125.70,1.61,0.01,0.01,60.0679,0.011,0.013,0.027*73
$GNGGA,073125.80,3105.79909225,N,12117.46662734,E,4,31,0.7,3.7862,M,11.0490,M,0.8,74*50
$GNRMC,073125.80,D,3105.79909225,N,12117.46662734,E,2.275,293.5,280326,6.5,W,R,S*53
$GNGST,073125.80,1.61,0.01,0.01,60.0303,0.011,0.013,0.027*74
$GNGGA,073125.90,3105.79912266,N,12117.46656262,E,4,31,0.7,3.8038,M,11.0490,M,0.9,74*54
$GNRMC,073125.90,D,3105.79912266,N,12117.46656262,E,2.309,298.8,280326,6.5,W,R,S*52
$GNGST,073125.90,1.61,0.01,0.01,60.0131,0.011,0.013,0.027*76
$GNGGA,073126.00,3105.79915380,N,12117.46650182,E,4,31,0.7,3.7997,M,11.0490,M,1.0,74*50
$GNRMC,073126.00,D,3105.79915380,N,12117.46650182,E,2.271,302.2,280326,6.5,W,R,S*5B
$GNGST,073126.00,1.61,0.01,0.01,60.0289,0.011,0.013,0.027*7C
$GNGGA,073126.10,3105.79918056,N,12117.46644180,E,4,30,0.7,3.7856,M,11.0490,M,1.1,74*5F
$GNRMC,073126.10,D,3105.79918056,N,12117.46644180,E,2.157,301.8,280326,6.5,W,R,S*56
$GNGST,073126.10,1.60,0.01,0.01,60.0579,0.011,0.013,0.027*74
$GNGGA,073126.20,3105.79921352,N,12117.46637961,E,4,30,0.7,3.7739,M,11.0490,M,1.2,74*57
$GNRMC,073126.20,D,3105.79921352,N,12117.46637961,E,2.151,301.3,280326,6.5,W,R,S*56
$GNGST,073126.20,1.60,0.01,0.01,60.0511,0.011,0.013,0.027*79
$GNGGA,073126.30,3105.79924620,N,12117.46630801,E,4,30,0.7,3.7708,M,11.0490,M,1.3,74*50
$GNRMC,073126.30,D,3105.79924620,N,12117.46630801,E,2.393,301.3,280326,6.5,W,R,S*5E
$GNGST,073126.30,1.60,0.01,0.01,60.0510,0.011,0.013,0.027*79
$GNGGA,073126.40,3105.79927778,N,12117.46624017,E,4,30,0.7,3.7711,M,11.0490,M,1.4,74*5D
$GNRMC,073126.40,D,3105.79927778,N,12117.46624017,E,2.563,295.1,280326,6.5,W,R,S*5B
$GNGST,073126.40,1.60,0.01,0.01,60.0481,0.011,0.013,0.027*77
$GNGGA,073126.50,3105.79930484,N,12117.46617092,E,4,30,0.7,3.7839,M,11.0490,M,1.5,74*53
$GNRMC,073126.50,D,3105.79930484,N,12117.46617092,E,2.415,293.1,280326,6.5,W,R,S*57
$GNGST,073126.50,1.60,0.01,0.01,60.0580,0.011,0.013,0.027*76
$GNGGA,073126.60,3105.79932206,N,12117.46610341,E,4,30,0.7,3.7869,M,11.0490,M,0.6,74*53
$GNRMC,073126.60,D,3105.79932206,N,12117.46610341,E,2.152,292.9,280326,6.5,W,R,S*5F
$GNGST,073126.60,1.60,0.01,0.01,56.5699,0.010,0.012,0.026*7F
$GNGGA,073126.70,3105.79934703,N,12117.46604070,E,4,30,0.7,3.7591,M,11.0490,M,0.7,74*5B
$GNRMC,073126.70,D,3105.79934703,N,12117.46604070,E,2.071,291.5,280326,6.5,W,R,S*53
$GNGST,073126.70,1.60,0.01,0.01,56.5238,0.010,0.012,0.026*71
$GNGGA,073126.80,3105.79937477,N,12117.46597385,E,4,30,0.7,3.7484,M,11.0490,M,0.8,74*5D
$GNRMC,073126.80,D,3105.79937477,N,12117.46597385,E,2.126,296.5,280326,6.5,W,R,S*5B
$GNGST,073126.80,1.60,0.01,0.01,56.5297,0.010,0.012,0.026*7B
$GNGGA,073126.90,3105.79940080,N,12117.46590476,E,4,30,0.7,3.7557,M,11.0490,M,0.9,74*52
$GNRMC,073126.90,D,3105.79940080,N,12117.46590476,E,2.311,296.1,280326,6.5,W,R,S*58
$GNGST,073126.90,1.60,0.01,0.01,56.4541,0.010,0.012,0.026*77
$GNGGA,073127.00,3105.79942877,N,12117.46584262,E,4,30,0.7,3.7560,M,11.0490,M,1.0,74*52
$GNRMC,073127.00,D,3105.79942877,N,12117.46584262,E,2.258,297.1,280326,6.5,W,R,S*59
$GNGST,073127.00,1.60,0.01,0.01,56.4348,0.010,0.012,0.026*70
$GNGGA,073127.10,3105.79945576,N,12117.46578315,E,4,30,0.7,3.7560,M,11.0490,M,1.1,74*5B
$GNRMC,073127.10,D,3105.79945576,N,12117.46578315,E,2.089,300.2,280326,6.5,W,R,S*53
$GNGST,073127.10,1.54,0.01,0.01,56.4860,0.010,0.012,0.026*77
$GNGGA,073127.20,3105.79948960,N,12117.46572006,E,4,30,0.7,3.7310,M,11.0489,M,1.2,74*5F
$GNRMC,073127.20,D,3105.79948960,N,12117.46572006,E,2.198,301.2,280326,6.5,W,R,S*5D
$GNGST,073127.20,1.54,0.01,0.01,56.4720,0.010,0.012,0.026*7F
$GNGGA,073127.30,3105.79951810,N,12117.46565812,E,4,30,0.7,3.7057,M,11.0489,M,1.3,74*5A
$GNRMC,073127.30,D,3105.79951810,N,12117.46565812,E,2.100,300.7,280326,6.5,W,R,S*5C
$GNGST,073127.30,1.54,0.01,0.01,56.4797,0.010,0.012,0.026*72
$GNGGA,073127.40,3105.79955125,N,12117.46559001,E,4,30,0.7,3.7078,M,11.0489,M,1.4,74*59
$GNRMC,073127.40,D,3105.79955125,N,12117.46559001,E,2.316,302.0,280326,6.5,W,R,S*55
$GNGST,073127.40,1.54,0.01,0.01,56.4154,0.010,0.012,0.026*7C
$GNGGA,073127.50,3105.79958079,N,12117.46552092,E,4,31,0.7,3.7180,M,11.0489,M,0.5,74*5B
$GNRMC,073127.50,D,3105.79958079,N,12117.46552092,E,2.352,299.2,280326,6.5,W,R,S*51
$GNGST,073127.50,1.54,0.01,0.01,56.4685,0.011,0.012,0.026*77
$GNGGA,073127.60,3105.79960395,N,12117.46546288,E,4,31,0.7,3.7084,M,11.0489,M,0.6,74*58
$GNRMC,073127.60,D,3105.79960395,N,12117.46546288,E,2.103,296.8,280326,6.5,W,R,S*57
$GNGST,073127.60,1.54,0.01,0.01,56.4766,0.010,0.012,0.026*79
$GNGGA,073127.70,3105.79962804,N,12117.46541017,E,4,31,0.7,3.6835,M,11.0489,M,0.7,74*59
$GNRMC,073127.70,D,3105.79962804,N,12117.46541017,E,1.867,296.0,280326,6.5,W,R,S*54
$GNGST,073127.70,1.54,0.01,0.01,56.5527,0.011,0.012,0.026*7F
$GNGGA,073127.80,3105.79965341,N,12117.46535699,E,4,30,0.7,3.6677,M,11.0489,M,0.8,74*5E
$GNRMC,073127.80,D,3105.79965341,N,12117.46535699,E,1.741,295.8,280326,6.5,W,R,S*55
$GNGST,073127.80,1.54,0.01,0.01,56.6420,0.010,0.012,0.026*74
$GNGGA,073127.90,3105.79967839,N,12117.46530190,E,4,31,0.7,3.6643,M,11.0489,M,0.9,74*55
$GNRMC,073127.90,D,3105.79967839,N,12117.46530190,E,1.779,295.2,280326,6.5,W,R,S*58
$GNGST,073127.90,1.54,0.01,0.01,56.5143,0.011,0.012,0.026*77
$GNGGA,073128.00,3105.79970355,N,12117.46524905,E,4,31,0.7,3.6782,M,11.0489,M,1.0,74*51
$GNRMC,073128.00,D,3105.79970355,N,12117.46524905,E,1.866,301.0,280326,6.5,W,R,S*57
$GNGST,073128.00,1.54,0.01,0.01,56.4699,0.011,0.012,0.026*70
$GNGGA,073128.10,3105.79972369,N,12117.46520450,E,4,30,0.7,3.7062,M,11.0489,M,1.1,74*5C
$GNRMC,073128.10,D,3105.79972369,N,12117.46520450,E,1.617,303.6,280326,6.5,W,R,S*5E
$GNGST,073128.10,1.53,0.01,0.01,56.5845,0.010,0.012,0.026*79
$GNGGA,073128.20,3105.79974537,N,12117.46516085,E,4,31,0.7,3.7255,M,11.0489,M,1.2,74*59
$GNRMC,073128.20,D,3105.79974537,N,12117.46516085,E,1.484,299.0,280326,6.5,W,R,S*53
$GNGST,073128.20,1.53,0.01,0.01,56.4590,0.011,0.012,0.026*7F
$GNGGA,073128.30,3105.79976567,N,12117.46512051,E,4,30,0.7,3.7535,M,11.0489,M,1.3,74*53
$GNRMC,073128.30,D,3105.79976567,N,12117.46512051,E,1.420,296.5,280326,6.5,W,R,S*5C
$GNGST,073128.30,1.53,0.01,0.01,56.5809,0.011,0.012,0.027*73
$GNGGA,073128.40,3105.79978634,N,12117.46508196,E,4,30,0.7,3.7709,M,11.0489,M,1.4,74*54
$GNRMC,073128.40,D,3105.79978634,N,12117.46508196,E,1.413,298.3,280326,6.5,W,R,S*59
$GNGST,073128.40,1.53,0.01,0.01,56.4209,0.011,0.012,0.027*7F
$GNGGA,073128.50,3105.79980655,N,12117.46504206,E,4,30,0.7,3.8028,M,11.0489,M,0.5,74*58
$GNRMC,073128.50,D,3105.79980655,N,12117.46504206,E,1.369,304.8,280326,6.5,W,R,S*5B
$GNGST,073128.50,1.53,0.01,0.01,56.4187,0.011,0.012,0.027*7B
$GNGGA,073128.60,3105.79982333,N,12117.46501334,E,4,30,0.7,3.8296,M,11.0489,M,0.6,74*5D
$GNRMC,073128.60,D,3105.79982333,N,12117.46501334,E,1.100,305.3,280326,6.5,W,R,S*5D
$GNGST,073128.60,1.53,0.01,0.01,56.3833,0.011,0.012,0.027*79
$GNGGA,073128.70,3105.79983578,N,12117.46497932,E,4,30,0.7,3.8702,M,11.0489,M,0.7,74*5F
$GNRMC,073128.70,D,3105.79983578,N,12117.46497932,E,0.956,297.6,280326,6.5,W,R,S*53
$GNGST,073128.70,1.53,0.01,0.01,56.3367,0.011,0.012,0.027*72
$GNGGA,073128.80,3105.79984417,N,12117.46495072,E,4,30,0.7,3.9032,M,11.0489,M,0.8,74*5A
$GNRMC,073128.80,D,3105.79984417,N,12117.46495072,E,0.866,282.3,280326,6.5,W,R,S*5F
$GNGST,073128.80,1.53,0.01,0.01,56.4801,0.011,0.012,0.027*71
$GNGGA,073128.90,3105.79984874,N,12117.46492047,E,4,30,0.7,3.9258,M,11.0489,M,0.9,74*5C
$GNRMC,073128.90,D,3105.79984874,N,12117.46492047,E,0.898,278.6,280326,6.5,W,R,S*57
$GNGST,073128.90,1.53,0.01,0.01,56.3944,0.011,0.012,0.027*77
$GNGGA,073129.00,3105.79984897,N,12117.46489010,E,4,30,0.7,3.9501,M,11.0489,M,1.0,74*52
$GNRMC,073129.00,D,3105.79984897,N,12117.46489010,E,0.971,271.3,280326,6.5,W,R,S*50
$GNGST,073129.00,1.53,0.01,0.01,56.3761,0.011,0.012,0.027*76
$GNGGA,073129.10,3105.79984820,N,12117.46485456,E,4,30,0.7,3.9616,M,11.0489,M,1.1,74*51
$GNRMC,073129.10,D,3105.79984820,N,12117.46485456,E,1.116,264.2,280326,6.5,W,R,S*5A
$GNGST,073129.10,1.70,0.01,0.01,56.3618,0.011,0.012,0.027*79
$GNGGA,073129.20,3105.79985216,N,12117.46481687,E,4,30,0.7,3.9692,M,11.0489,M,1.2,74*59
$GNRMC,073129.20,D,3105.79985216,N,12117.46481687,E,1.280,271.1,280326,6.5,W,R,S*56
$GNGST,073129.20,1.70,0.01,0.01,56.3648,0.011,0.012,0.027*7F
$GNGGA,073129.30,3105.79985516,N,12117.46477946,E,4,31,0.7,3.9935,M,11.0489,M,1.3,74*56
$GNRMC,073129.30,D,3105.79985516,N,12117.46477946,E,1.094,277.1,280326,6.5,W,R,S*5A
$GNGST,073129.30,1.70,0.01,0.01,52.3728,0.010,0.011,0.026*7E
$GNGGA,073129.40,3105.79986391,N,12117.46474925,E,4,31,0.7,4.0031,M,11.0489,M,1.4,74*59
$GNRMC,073129.40,D,3105.79986391,N,12117.46474925,E,1.010,288.7,280326,6.5,W,R,S*5B
$GNGST,073129.40,1.70,0.01,0.01,52.3524,0.010,0.011,0.026*77
$GNGGA,073129.50,3105.79987456,N,12117.46472108,E,4,31,0.7,3.9878,M,11.0489,M,1.5,74*5E
$GNRMC,073129.50,D,3105.79987456,N,12117.46472108,E,0.914,295.9,280326,6.5,W,R,S*58
$GNGST,073129.50,1.70,0.01,0.01,52.3298,0.010,0.011,0.026*76
$GNGGA,073129.60,3105.79988733,N,12117.46469182,E,4,31,0.7,3.9666,M,11.0489,M,0.6,74*59
$GNRMC,073129.60,D,3105.79988733,N,12117.46469182,E,0.965,300.3,280326,6.5,W,R,S*5D
$GNGST,073129.60,1.70,0.01,0.01,52.3087,0.010,0.011,0.026*79
$GNGGA,073129.70,3105.79990129,N,12117.46466191,E,4,31,0.7,3.9352,M,11.0489,M,0.7,74*52
$GNRMC,073129.70,D,3105.79990129,N,12117.46466191,E,0.997,305.6,280326,6.5,W,R,S*58
$GNGST,073129.70,1.70,0.01,0.01,52.2987,0.010,0.011,0.026*70
$GNGGA,073129.80,3105.79991424,N,12117.46463376,E,4,31,0.7,3.9096,M,11.0489,M,0.8,74*5E
$GNRMC,073129.80,D,3105.79991424,N,12117.46463376,E,1.035,303.3,280326,6.5,W,R,S*53
$GNGST,073129.80,1.70,0.01,0.01,52.2753,0.010,0.011,0.026*78
$GNGGA,073129.90,3105.79992985,N,12117.46460685,E,4,31,0.7,3.8774,M,11.0489,M,0.9,74*5B
$GNRMC,073129.90,D,3105.79992985,N,12117.46460685,E,1.042,302.3,280326,6.5,W,R,S*5C
$GNGST,073129.90,1.70,0.01,0.01,52.2500,0.010,0.011,0.026*7D
$GNGGA,073130.00,3105.79994708,N,12117.46457810,E,4,31,0.7,3.8512,M,11.0489,M,1.0,74*5B
$GNRMC,073130.00,D,3105.79994708,N,12117.46457810,E,0.986,305.3,280326,6.5,W,R,S*51
$GNGST,073130.00,1.70,0.01,0.01,52.2724,0.010,0.011,0.026*78
$GNGGA,073130.10,3105.79996275,N,12117.46455703,E,4,31,0.7,3.8293,M,11.0489,M,1.1,74*57
$GNRMC,073130.10,D,3105.79996275,N,12117.46455703,E,0.930,312.4,280326,6.5,W,R,S*5E
$GNGST,073130.10,1.65,0.01,0.01,52.3081,0.010,0.011,0.026*74
$GNGGA,073130.20,3105.79997359,N,12117.46454005,E,4,31,0.7,3.8074,M,11.0489,M,1.2,74*52
$GNRMC,073130.20,D,3105.79997359,N,12117.46454005,E,0.670,317.8,280326,6.5,W,R,S*51
$GNGST,073130.20,1.65,0.01,0.01,52.3279,0.010,0.011,0.026*72
$GNGGA,073130.30,3105.79998122,N,12117.46452110,E,4,31,0.7,3.7925,M,11.0489,M,1.3,74*52
$GNRMC,073130.30,D,3105.79998122,N,12117.46452110,E,0.505,302.7,280326,6.5,W,R,S*58
$GNGST,073130.30,1.65,0.01,0.01,52.3395,0.010,0.011,0.026*70
$GNGGA,073130.40,3105.79998468,N,12117.46451149,E,4,31,0.7,3.7655,M,11.0489,M,1.4,74*5E
$GNRMC,073130.40,D,3105.79998468,N,12117.46451149,E,0.302,278.0,280326,6.5,W,R,S*51
$GNGST,073130.40,1.65,0.01,0.01,52.3482,0.010,0.012,0.026*75
$GNGGA,073130.50,3105.79998737,N,12117.46450687,E,4,31,0.7,3.7308,M,11.0489,M,1.5,74*5E
$GNRMC,073130.50,D,3105.79998737,N,12117.46450687,E,0.176,251.9,280326,6.5,W,R,S*5E
$GNGST,073130.50,1.65,0.01,0.01,51.0641,0.010,0.011,0.026*7A
$GNGGA,073130.60,3105.79998587,N,12117.46450069,E,4,31,0.7,3.6973,M,11.0489,M,0.6,74*57
$GNRMC,073130.60,D,3105.79998587,N,12117.46450069,E,0.079,209.1,280326,6.5,W,R,S*59
$GNGST,073130.60,1.65,0.01,0.01,51.0642,0.010,0.011,0.026*7A
$GNGGA,073130.70,3105.79998586,N,12117.46449439,E,4,31,0.7,3.6639,M,11.0489,M,0.7,74*5E
$GNRMC,073130.70,D,3105.79998586,N,12117.46449439,E,0.082,246.9,280326,6.5,W,R,S*57
$GNGST,073130.70,1.65,0.01,0.01,51.0063,0.010,0.011,0.026*7E
$GNGGA,073130.80,3105.79998655,N,12117.46448936,E,4,31,0.7,3.6411,M,11.0489,M,0.8,74*58
$GNRMC,073130.80,D,3105.79998655,N,12117.46448936,E,0.170,280.7,280326,6.5,W,R,S*5E
$GNGST,073130.80,1.65,0.01,0.01,51.0348,0.010,0.011,0.026*7B
$GNGGA,073130.90,3105.79998451,N,12117.46448545,E,4,30,0.7,3.6262,M,11.0489,M,0.9,74*55
$GNRMC,073130.90,D,3105.79998451,N,12117.46448545,E,0.220,257.3,280326,6.5,W,R,S*59
$GNGST,073130.90,1.65,0.01,0.01,51.0235,0.010,0.011,0.026*71
$GNGGA,073131.00,3105.79998115,N,12117.46448014,E,4,30,0.7,3.6130,M,11.0489,M,1.0,74*55
$GNRMC,073131.00,D,3105.79998115,N,12117.46448014,E,0.187,233.2,280326,6.5,W,R,S*58
$GNGST,073131.00,1.65,0.01,0.01,51.0408,0.010,0.011,0.026*71
$GNGGA,073131.10,3105.79997831,N,12117.46447801,E,4,29,0.7,3.5927,M,11.0489,M,1.1,74*53
$GNRMC,073131.10,D,3105.79997831,N,12117.46447801,E,0.166,187.6,280326,6.5,W,R,S*5D
$GNGST,073131.10,1.86,0.01,0.01,50.8465,0.010,0.011,0.026*7F
$GNGGA,073131.20,3105.79997297,N,12117.46447600,E,4,29,0.7,3.5774,M,11.0489,M,1.2,74*52
$GNRMC,073131.20,D,3105.79997297,N,12117.46447600,E,0.199,171.7,280326,6.5,W,R,S*5F
$GNGST,073131.20,1.86,0.01,0.01,50.8424,0.011,0.011,0.026*78
$GNGGA,073131.30,3105.79997010,N,12117.46447581,E,4,29,0.7,3.5676,M,11.0489,M,1.3,74*56
$GNRMC,073131.30,D,3105.79997010,N,12117.46447581,E,0.147,168.2,280326,6.5,W,R,S*57
$GNGST,073131.30,1.86,0.01,0.01,50.7349,0.011,0.011,0.026*7A
$GNGGA,073131.40,3105.79996954,N,12117.46447336,E,4,29,0.7,3.5738,M,11.0489,M,1.4,74*5F
$GNRMC,073131.40,D,3105.79996954,N,12117.46447336,E,0.069,213.5,280326,6.5,W,R,S*57
$GNGST,073131.40,1.86,0.01,0.01,50.6847,0.011,0.011,0.027*78
$GNGGA,073131.50,3105.79997327,N,12117.46447511,E,4,30,0.7,3.5788,M,11.0489,M,0.5,74*51
$GNRMC,073131.50,D,3105.79997327,N,12117.46447511,E,0.033,276.3,280326,6.5,W,R,S*50
$GNGST,073131.50,1.86,0.01,0.01,51.1205,0.011,0.012,0.027*70
$GNGGA,073131.60,3105.79996899,N,12117.46447656,E,4,30,0.7,3.5987,M,11.0489,M,0.6,74*5F
$GNRMC,073131.60,D,3105.79996899,N,12117.46447656,E,0.015,148.4,280326,6.5,W,R,S*51
$GNGST,073131.60,1.86,0.01,0.01,51.1244,0.011,0.012,0.027*76
$GNGGA,073131.70,3105.79996351,N,12117.46447783,E,4,30,0.7,3.6214,M,11.0489,M,0.7,74*5B
$GNRMC,073131.70,D,3105.79996351,N,12117.46447783,E,0.178,159.1,280326,6.5,W,R,S*59
$GNGST,073131.70,1.86,0.01,0.01,51.1434,0.011,0.012,0.027*76
$GNGGA,073131.80,3105.79996138,N,12117.46448177,E,4,30,0.7,3.6369,M,11.0489,M,0.8,74*5F
$GNRMC,073131.80,D,3105.79996138,N,12117.46448177,E,0.245,167.6,280326,6.5,W,R,S*5E
$GNGST,073131.80,1.86,0.01,0.01,51.1808,0.011,0.012,0.027*7A
$GNGGA,073131.90,3105.79995416,N,12117.46447941,E,4,30,0.7,3.6761,M,11.0489,M,0.9,74*5B
$GNRMC,073131.90,D,3105.79995416,N,12117.46447941,E,0.237,166.3,280326,6.5,W,R,S*56
$GNGST,073131.90,1.86,0.01,0.01,51.2076,0.011,0.012,0.027*79
$GNGGA,073132.00,3105.79994860,N,12117.46448299,E,4,30,0.7,3.7117,M,11.0489,M,1.0,74*52
$GNRMC,073132.00,D,3105.79994860,N,12117.46448299,E,0.250,159.6,280326,6.5,W,R,S*59
$GNGST,073132.00,1.86,0.01,0.01,51.2032,0.011,0.012,0.027*73
$GNGGA,073132.10,3105.79994075,N,12117.46448677,E,4,29,0.7,3.7452,M,11.0489,M,1.1,74*56
$GNRMC,073132.10,D,3105.79994075,N,12117.46448677,E,0.274,159.4,280326,6.5,W,R,S*54
$GNGST,073132.10,1.58,0.01,0.01,51.3882,0.011,0.012,0.027*73
$GNGGA,073132.20,3105.79993202,N,12117.46448951,E,4,30,0.7,3.7810,M,11.0489,M,1.2,74*5A
$GNRMC,073132.20,D,3105.79993202,N,12117.46448951,E,0.304,164.8,280326,6.5,W,R,S*5D
$GNGST,073132.20,1.58,0.01,0.01,51.1844,0.011,0.012,0.027*78
$GNGGA,073132.30,3105.79992310,N,12117.46449163,E,4,30,0.7,3.8098,M,11.0489,M,1.3,74*56
$GNRMC,073132.30,D,3105.79992310,N,12117.46449163,E,0.349,165.6,280326,6.5,W,R,S*51
$GNGST,073132.30,1.58,0.01,0.01,52.3460,0.011,0.012,0.027*72
$GNGGA,073132.40,3105.79991648,N,12117.46449516,E,4,30,0.7,3.8348,M,11.0489,M,1.4,74*55
$GNRMC,073132.40,D,3105.79991648,N,12117.46449516,E,0.344,165.3,280326,6.5,W,R,S*53
$GNGST,073132.40,1.58,0.01,0.01,52.3484,0.011,0.012,0.027*7F
$GNGGA,073132.50,3105.79990901,N,12117.46449494,E,4,30,0.7,3.8632,M,11.0489,M,1.5,74*55
$GNRMC,073132.50,D,3105.79990901,N,12117.46449494,E,0.307,174.3,280326,6.5,W,R,S*5D
$GNGST,073132.50,1.58,0.01,0.01,52.3585,0.011,0.012,0.027*7E
$GNGGA,073132.60,3105.79990195,N,12117.46449505,E,4,30,0.7,3.8869,M,11.0489,M,0.6,74*58
$GNRMC,073132.60,D,3105.79990195,N,12117.46449505,E,0.250,188.5,280326,6.5,W,R,S*54
$GNGST,073132.60,1.58,0.01,0.01,52.3526,0.011,0.012,0.027*74
$GNGGA,073132.70,3105.79989750,N,12117.46449550,E,4,30,0.7,3.9068,M,11.0489,M,0.7,74*57
$GNRMC,073132.70,D,3105.79989750,N,12117.46449550,E,0.189,194.9,280326,6.5,W,R,S*54
$GNGST,073132.70,1.58,0.01,0.01,52.3591,0.011,0.012,0.027*79
$GNGGA,073132.80,3105.79989472,N,12117.46449379,E,4,30,0.7,3.9178,M,11.0489,M,0.8,74*59
$GNRMC,073132.80,D,3105.79989472,N,12117.46449379,E,0.103,199.9,280326,6.5,W,R,S*5A
$GNGST,073132.80,1.58,0.01,0.01,52.3594,0.011,0.012,0.027*73
$GNGGA,073132.90,3105.79989376,N,12117.46449224,E,4,30,0.7,3.9286,M,11.0489,M,0.9,74*51
$GNRMC,073132.90,D,3105.79989376,N,12117.46449224,E,0.037,254.9,280326,6.5,W,R,S*55
$GNGST,073132.90,1.58,0.01,0.01,52.3508,0.011,0.012,0.027*77
$GNGGA,073133.00,3105.79989549,N,12117.46449019,E,4,30,0.7,3.9355,M,11.0489,M,1.0,74*58
$GNRMC,073133.00,D,3105.79989549,N,12117.46449019,E,0.079,318.0,280326,6.5,W,R,S*51
$GNGST,073133.00,1.58,0.01,0.01,52.3401,0.011,0.012,0.027*77
$GNGGA,073133.10,3105.79989844,N,12117.46448596,E,4,30,0.7,3.9293,M,11.0489,M,1.1,74*50
$GNRMC,073133.10,D,3105.79989844,N,12117.46448596,E,0.212,305.9,280326,6.5,W,R,S*59
$GNGST,073133.10,1.44,0.01,0.01,52.3406,0.011,0.012,0.027*7C
$GNGGA,073133.20,3105.79990331,N,12117.46448215,E,4,29,0.7,3.9239,M,11.0489,M,1.2,74*55
$GNRMC,073133.20,D,3105.79990331,N,12117.46448215,E,0.286,317.9,280326,6.5,W,R,S*59
$GNGST,073133.20,1.44,0.01,0.01,52.3099,0.011,0.012,0.027*7D
$GNGGA,073133.30,3105.79990912,N,12117.46447762,E,4,29,0.7,3.9077,M,11.0489,M,1.3,74*5C
$GNRMC,073133.30,D,3105.79990912,N,12117.46447762,E,0.313,325.4,280326,6.5,W,R,S*58
$GNGST,073133.30,1.44,0.01,0.01,52.3054,0.011,0.012,0.027*7D
$GNGGA,073133.40,3105.79991310,N,12117.46447239,E,4,29,0.7,3.8945,M,11.0489,M,1.4,74*57
$GNRMC,073133.40,D,3105.79991310,N,12117.46447239,E,0.284,326.4,280326,6.5,W,R,S*51
$GNGST,073133.40,1.44,0.01,0.01,52.2970,0.011,0.012,0.027*74
$GNGGA,073133.50,3105.79991877,N,12117.46447052,E,4,29,0.7,3.8784,M,11.0489,M,0.5,74*50
$GNRMC,073133.50,D,3105.79991877,N,12117.46447052,E,0.197,345.5,280326,6.5,W,R,S*50
$GNGST,073133.50,1.44,0.01,0.01,52.2745,0.011,0.012,0.027*7D
$GNGGA,073133.60,3105.79992266,N,12117.46447011,E,4,29,0.7,3.8622,M,11.0489,M,0.6,74*53
$GNRMC,073133.60,D,3105.79992266,N,12117.46447011,E,0.130,8.0,280326,6.5,W,R,S*5F
$GNGST,073133.60,1.44,0.01,0.01,52.2772,0.011,0.012,0.027*7A
$GNGGA,073133.70,3105.79992458,N,12117.46447015,E,4,30,0.7,3.8432,M,11.0489,M,0.7,74*57
$GNRMC,073133.70,D,3105.79992458,N,12117.46447015,E,0.071,21.7,280326,6.5,W,R,S*69
$GNGST,073133.70,1.44,0.01,0.01,50.6910,0.011,0.011,0.027*74
$GNGGA,073133.80,3105.79992905,N,12117.46446992,E,4,30,0.7,3.8351,M,11.0489,M,0.8,74*57
$GNRMC,073133.80,D,3105.79992905,N,12117.46446992,E,0.091,357.5,280326,6.5,W,R,S*5A
$GNGST,073133.80,1.44,0.01,0.01,50.7035,0.011,0.011,0.027*74
$GNGGA,073133.90,3105.79993322,N,12117.46447267,E,4,30,0.7,3.8204,M,11.0489,M,0.9,74*58
$GNRMC,073133.90,D,3105.79993322,N,12117.46447267,E,0.121,358.6,280326,6.5,W,R,S*53
$GNGST,073133.90,1.44,0.01,0.01,50.7261,0.011,0.011,0.027*76
$GNGGA,073134.00,3105.79993694,N,12117.46447360,E,4,30,0.7,3.8128,M,11.0489,M,1.0,74*5D
$GNRMC,073134.00,D,3105.79993694,N,12117.46447360,E,0.128,348.9,280326,6.5,W,R,S*54
$GNGST,073134.00,1.44,0.01,0.01,50.7460,0.011,0.011,0.027*7F
$GNGGA,073134.10,3105.79993802,N,12117.46447310,E,4,30,0.7,3.7977,M,11.0489,M,1.1,74*56
$GNRMC,073134.10,D,3105.79993802,N,12117.46447310,E,0.068,324.8,280326,6.5,W,R,S*5D
$GNGST,073134.10,1.43,0.01,0.01,50.7694,0.011,0.011,0.027*70
$GNGGA,073134.20,3105.79993904,N,12117.46447211,E,4,30,0.7,3.7868,M,11.0489,M,1.2,74*5E
$GNRMC,073134.20,D,3105.79993904,N,12117.46447211,E,0.035,319.3,280326,6.5,W,R,S*54
$GNGST,073134.20,1.43,0.01,0.01,50.8064,0.011,0.011,0.027*75
$GNGGA,073134.30,3105.79994099,N,12117.46447290,E,4,30,0.7,3.7718,M,11.0489,M,1.3,74*55
$GNRMC,073134.30,D,3105.79994099,N,12117.46447290,E,0.004,24.0,280326,6.5,W,R,S*6A
$GNGST,073134.30,1.43,0.01,0.01,50.8264,0.011,0.011,0.027*76
$GNGGA,073134.40,3105.79994398,N,12117.46447465,E,4,30,0.7,3.7575,M,11.0489,M,1.4,74*52
$GNRMC,073134.40,D,3105.79994398,N,12117.46447465,E,0.061,34.9,280326,6.5,W,R,S*68
$GNGST,073134.40,1.43,0.01,0.01,50.8201,0.011,0.011,0.027*72
$GNGGA,073134.50,3105.79994612,N,12117.46447445,E,4,30,0.7,3.7366,M,11.0489,M,0.5,74*52
$GNRMC,073134.50,D,3105.79994612,N,12117.46447445,E,0.030,50.1,280326,6.5,W,R,S*62
$GNGST,073134.50,1.43,0.01,0.01,50.7865,0.011,0.011,0.027*74
$GNGGA,073134.60,3105.79994689,N,12117.46446869,E,4,30,0.7,3.7171,M,11.0489,M,0.6,74*57
$GNRMC,073134.60,D,3105.79994689,N,12117.46446869,E,0.056,346.7,280326,6.5,W,R,S*52
$GNGST,073134.60,1.43,0.01,0.01,51.0868,0.010,0.011,0.026*7C
$GNGGA,073134.70,3105.79994684,N,12117.46446561,E,4,30,0.7,3.6993,M,11.0489,M,0.7,74*5A
$GNRMC,073134.70,D,3105.79994684,N,12117.46446561,E,0.095,303.4,280326,6.5,W,R,S*56
$GNGST,073134.70,1.43,0.01,0.01,51.0744,0.011,0.011,0.026*7D
$GNGGA,073134.80,3105.79994464,N,12117.46446042,E,4,30,0.7,3.6784,M,11.0489,M,0.8,74*5A
$GNRMC,073134.80,D,3105.79994464,N,12117.46446042,E,0.130,263.3,280326,6.5,W,R,S*5F
$GNGST,073134.80,1.43,0.01,0.01,51.0999,0.011,0.011,0.026*7C
$GNGGA,073134.90,3105.79994573,N,12117.46446008,E,4,30,0.7,3.6632,M,11.0489,M,0.9,74*5F
$GNRMC,073134.90,D,3105.79994573,N,12117.46446008,E,0.127,253.0,280326,6.5,W,R,S*51
$GNGST,073134.90,1.43,0.01,0.01,51.1076,0.011,0.011,0.026*74
$GNGGA,073135.00,3105.79994668,N,12117.46445992,E,4,30,0.7,3.6473,M,11.0489,M,1.0,74*58
$GNRMC,073135.00,D,3105.79994668,N,12117.46445992,E,0.086,218.6,280326,6.5,W,R,S*5A
$GNGST,073135.00,1.43,0.01,0.01,51.0709,0.011,0.011,0.026*72
$GNGGA,073135.10,3105.79994423,N,12117.46445933,E,4,30,0.7,3.6388,M,11.0489,M,1.1,74*5D
$GNRMC,073135.10,D,3105.79994423,N,12117.46445933,E,0.113,194.5,280326,6.5,W,R,S*54
$GNGST,073135.10,1.49,0.01,0.01,51.1958,0.011,0.011,0.026*72
$GNGGA,073135.20,3105.79994181,N,12117.46445317,E,4,30,0.7,3.6329,M,11.0489,M,1.2,74*57
$GNRMC,073135.20,D,3105.79994181,N,12117.46445317,E,0.157,219.3,280326,6.5,W,R,S*56
$GNGST,073135.20,1.49,0.01,0.01,51.2147,0.011,0.011,0.026*74
$GNGGA,073135.30,3105.79994004,N,12117.46445304,E,4,30,0.7,3.6213,M,11.0489,M,1.3,74*51
$GNRMC,073135.30,D,3105.79994004,N,12117.46445304,E,0.185,225.7,280326,6.5,W,R,S*5D
$GNGST,073135.30,1.49,0.01,0.01,51.3897,0.011,0.012,0.027*72
$GNGGA,073135.40,3105.79993623,N,12117.46445117,E,4,30,0.7,3.6107,M,11.0489,M,1.4,74*53
$GNRMC,073135.40,D,3105.79993623,N,12117.46445117,E,0.144,232.2,280326,6.5,W,R,S*50
$GNGST,073135.40,1.49,0.01,0.01,51.2972,0.011,0.012,0.027*7E
$GNGGA,073135.50,3105.79993230,N,12117.46444922,E,4,30,0.7,3.6216,M,11.0489,M,0.5,74*58
$GNRMC,073135.50,D,3105.79993230,N,12117.46444922,E,0.109,208.5,280326,6.5,W,R,S*5F
$GNGST,073135.50,1.49,0.01,0.01,51.4060,0.011,0.012,0.027*73
$GNGGA,073135.60,3105.79993012,N,12117.46444602,E,4,30,0.7,3.6288,M,11.0489,M,0.6,74*50
$GNRMC,073135.60,D,3105.79993012,N,12117.46444602,E,0.135,205.7,280326,6.5,W,R,S*53
$GNGST,073135.60,1.49,0.01,0.01,51.4960,0.011,0.012,0.027*79
$GNGGA,073135.70,3105.79992687,N,12117.46444473,E,4,30,0.7,3.6409,M,11.0489,M,0.7,74*50
$GNRMC,073135.70,D,3105.79992687,N,12117.46444473,E,0.148,194.1,280326,6.5,W,R,S*5A
$GNGST,073135.70,1.49,0.01,0.01,51.5162,0.011,0.012,0.027*73
$GNGGA,073135.80,3105.79992414,N,12117.46444212,E,4,30,0.7,3.6468,M,11.0489,M,0.8,74*5E
$GNRMC,073135.80,D,3105.79992414,N,12117.46444212,E,0.144,198.0,280326,6.5,W,R,S*5D
$GNGST,073135.80,1.49,0.01,0.01,51.5343,0.011,0.012,0.027*7D
$GNGGA,073135.90,3105.79992034,N,12117.46444039,E,4,30,0.7,3.6553,M,11.0489,M,0.9,74*5A
$GNRMC,073135.90,D,3105.79992034,N,12117.46444039,E,0.137,213.0,280326,6.5,W,R,S*55
$GNGST,073135.90,1.49,0.01,0.01,51.5386,0.011,0.012,0.027*75
$GNGGA,073136.00,3105.79991601,N,12117.46443875,E,4,30,0.7,3.6643,M,11.0489,M,1.0,74*5E
$GNRMC,073136.00,D,3105.79991601,N,12117.46443875,E,0.173,214.7,280326,6.5,W,R,S*5B
$GNGST,073136.00,1.49,0.01,0.01,51.5443,0.011,0.012,0.027*71
$GNGGA,073136.10,3105.79991368,N,12117.46443640,E,4,30,0.7,3.6761,M,11.0489,M,1.1,74*5D
$GNRMC,073136.10,D,3105.79991368,N,12117.46443640,E,0.110,219.9,280326,6.5,W,R,S*5E
$GNGST,073136.10,1.63,0.01,0.01,51.5048,0.011,0.012,0.027*77
$GNGGA,073136.20,3105.79991044,N,12117.46443437,E,4,30,0.7,3.6906,M,11.0489,M,1.2,74*5D
$GNRMC,073136.20,D,3105.79991044,N,12117.46443437,E,0.103,204.6,280326,6.5,W,R,S*53
$GNGST,073136.20,1.63,0.01,0.01,51.5256,0.011,0.012,0.027*79
$GNGGA,073136.30,3105.79990699,N,12117.46443199,E,4,30,0.7,3.6985,M,11.0489,M,1.3,74*50
$GNRMC,073136.30,D,3105.79990699,N,12117.46443199,E,0.131,207.2,280326,6.5,W,R,S*52
$GNGST,073136.30,1.63,0.01,0.01,51.5068,0.011,0.012,0.027*77
$GNGGA,073136.40,3105.79990428,N,12117.46442756,E,4,30,0.7,3.7133,M,11.0489,M,1.4,74*58
$GNRMC,073136.40,D,3105.79990428,N,12117.46442756,E,0.212,224.7,280326,6.5,W,R,S*5F
$GNGST,073136.40,1.63,0.01,0.01,51.4304,0.011,0.012,0.027*78
$GNGGA,073136.50,3105.79989913,N,12117.46442242,E,4,30,0.7,3.7264,M,11.0489,M,0.5,74*55
$GNRMC,073136.50,D,3105.79989913,N,12117.46442242,E,0.262,217.6,280326,6.5,W,R,S*55
$GNGST,073136.50,1.63,0.01,0.01,51.3839,0.011,0.012,0.027*7B
$GNGGA,073136.60,3105.79988848,N,12117.46441539,E,4,30,0.7,3.7540,M,11.0489,M,0.6,74*52
$GNRMC,073136.60,D,3105.79988848,N,12117.46441539,E,0.318,208.1,280326,6.5,W,R,S*55
$GNGST,073136.60,1.63,0.01,0.01,52.2824,0.011,0.012,0.027*76
$GNGGA,073136.70,3105.79987830,N,12117.46441282,E,4,30,0.7,3.7673,M,11.0489,M,0.7,74*56
$GNRMC,073136.70,D,3105.79987830,N,12117.46441282,E,0.386,186.5,280326,6.5,W,R,S*55
$GNGST,073136.70,1.63,0.01,0.01,52.2333,0.011,0.012,0.027*7A
$GNGGA,073136.80,3105.79987056,N,12117.46440910,E,4,30,0.7,3.7817,M,11.0489,M,0.8,74*53
$GNRMC,073136.80,D,3105.79987056,N,12117.46440910,E,0.405,187.9,280326,6.5,W,R,S*52
$GNGST,073136.80,1.63,0.01,0.01,52.2236,0.011,0.012,0.027*71
$GNGGA,073136.90,3105.79986267,N,12117.46440420,E,4,30,0.7,3.7948,M,11.0489,M,0.9,74*57
$GNRMC,073136.90,D,3105.79986267,N,12117.46440420,E,0.374,203.2,280326,6.5,W,R,S*59
$GNGST,073136.90,1.63,0.01,0.01,52.2447,0.011,0.012,0.027*70
$GNGGA,073137.00,3105.79985530,N,12117.46439795,E,4,30,0.7,3.8074,M,11.0489,M,1.0,74*5B
$GNRMC,073137.00,D,3105.79985530,N,12117.46439795,E,0.418,223.6,280326,6.5,W,R,S*5F
$GNGST,073137.00,1.63,0.01,0.01,52.2747,0.011,0.012,0.027*7B
$GNGGA,073137.10,3105.79984970,N,12117.46438815,E,4,30,0.7,3.8176,M,11.0489,M,1.1,74*57
$GNRMC,073137.10,D,3105.79984970,N,12117.46438815,E,0.448,233.6,280326,6.5,W,R,S*55
$GNGST,073137.10,1.49,0.01,0.01,52.2698,0.011,0.012,0.027*71
$GNGGA,073137.20,3105.79984471,N,12117.46437841,E,4,30,0.7,3.8163,M,11.0489,M,1.2,74*51
$GNRMC,073137.20,D,3105.79984471,N,12117.46437841,E,0.427,242.3,280326,6.5,W,R,S*5E
$GNGST,073137.20,1.49,0.01,0.01,52.2540,0.011,0.012,0.027*74
$GNGGA,073137.30,3105.79984087,N,12117.46436907,E,4,31,0.7,3.7861,M,11.0488,M,1.3,74*5A
$GNRMC,073137.30,D,3105.79984087,N,12117.46436907,E,0.414,242.5,280326,6.5,W,R,S*56
$GNGST,073137.30,1.49,0.01,0.01,52.0416,0.011,0.011,0.026*77
$GNGGA,073137.40,3105.79983582,N,12117.46435896,E,4,31,0.7,3.7888,M,11.0488,M,1.4,74*50
$GNRMC,073137.40,D,3105.79983582,N,12117.46435896,E,0.409,242.1,280326,6.5,W,R,S*54
$GNGST,073137.40,1.49,0.01,0.01,52.0594,0.011,0.011,0.026*7B
$GNGGA,073137.50,3105.79982946,N,12117.46434655,E,4,31,0.7,3.7871,M,11.0488,M,0.5,74*52
$GNRMC,073137.50,D,3105.79982946,N,12117.46434655,E,0.440,242.1,280326,6.5,W,R,S*5D
$GNGST,073137.50,1.49,0.01,0.01,52.0587,0.011,0.011,0.026*78
$GNGGA,073137.60,3105.79982050,N,12117.46433252,E,4,31,0.7,3.7834,M,11.0488,M,0.6,74*59
$GNRMC,073137.60,D,3105.79982050,N,12117.46433252,E,0.492,236.3,280326,6.5,W,R,S*5A
$GNGST,073137.60,1.49,0.01,0.01,52.0925,0.011,0.011,0.026*7F
$GNGGA,073137.70,3105.79980555,N,12117.46431576,E,4,31,0.7,3.7795,M,11.0488,M,0.7,74*5C
$GNRMC,073137.70,D,3105.79980555,N,12117.46431576,E,0.658,222.1,280326,6.5,W,R,S*59
$GNGST,073137.70,1.49,0.01,0.01,52.0988,0.011,0.011,0.026*79
$GNGGA,073137.80,3105.79979169,N,12117.46430115,E,4,31,0.7,3.7662,M,11.0488,M,0.8,74*58
$GNRMC,073137.80,D,3105.79979169,N,12117.46430115,E,0.824,218.6,280326,6.5,W,R,S*50
$GNGST,073137.80,1.49,0.01,0.01,52.1004,0.011,0.012,0.026*79
$GNGGA,073137.90,3105.79977589,N,12117.46428474,E,4,31,0.7,3.7631,M,11.0488,M,0.9,74*51
$GNRMC,073137.90,D,3105.79977589,N,12117.46428474,E,0.860,218.7,280326,6.5,W,R,S*5F
$GNGST,073137.90,1.49,0.01,0.01,52.1545,0.011,0.012,0.026*78
$GNGGA,073138.00,3105.79975668,N,12117.46426597,E,4,30,0.7,3.7694,M,11.0488,M,1.0,74*5D
$GNRMC,073138.00,D,3105.79975668,N,12117.46426597,E,0.965,216.9,280326,6.5,W,R,S*51
$GNGST,073138.00,1.49,0.01,0.01,52.2362,0.011,0.012,0.026*7E
$GNGGA,073138.10,3105.79973518,N,12117.46424835,E,4,31,0.7,3.7718,M,11.0488,M,1.1,74*5C
$GNRMC,073138.10,D,3105.79973518,N,12117.46424835,E,1.018,215.8,280326,6.5,W,R,S*55
$GNGST,073138.10,1.40,0.01,0.01,52.3026,0.011,0.012,0.026*74
$GNGGA,073138.20,3105.79971826,N,12117.46423547,E,4,30,0.7,3.7543,M,11.0488,M,1.2,74*5C
$GNRMC,073138.20,D,3105.79971826,N,12117.46423547,E,0.880,211.4,280326,6.5,W,R,S*5B
$GNGST,073138.20,1.40,0.01,0.01,52.3535,0.011,0.012,0.026*70
$GNGGA,073138.30,3105.79969233,N,12117.46421238,E,4,31,0.7,3.7669,M,11.0488,M,1.3,74*5C
$GNRMC,073138.30,D,3105.79969233,N,12117.46421238,E,0.948,215.1,280326,6.5,W,R,S*54
$GNGST,073138.30,1.40,0.01,0.01,53.1129,0.010,0.011,0.026*79
$GNGGA,073138.40,3105.79966763,N,12117.46419040,E,4,31,0.7,3.7694,M,11.0488,M,1.4,74*57
$GNRMC,073138.40,D,3105.79966763,N,12117.46419040,E,1.071,218.4,280326,6.5,W,R,S*50
$GNGST,073138.40,1.40,0.01,0.01,53.1860,0.010,0.012,0.026*79
$GNGGA,073138.50,3105.79964410,N,12117.46417185,E,4,31,0.7,3.7620,M,11.0488,M,0.5,74*5A
$GNRMC,073138.50,D,3105.79964410,N,12117.46417185,E,1.066,216.2,280326,6.5,W,R,S*5C
$GNGST,073138.50,1.40,0.01,0.01,53.0987,0.010,0.011,0.026*72
$GNGGA,073138.60,3105.79962310,N,12117.46415395,E,4,31,0.7,3.7599,M,11.0488,M,0.6,74*5B
$GNRMC,073138.60,D,3105.79962310,N,12117.46415395,E,0.977,213.8,280326,6.5,W,R,S*58
$GNGST,073138.60,1.40,0.01,0.01,53.1551,0.010,0.012,0.026*74
$GNGGA,073138.70,3105.79960201,N,12117.46413248,E,4,31,0.7,3.7499,M,11.0488,M,0.7,74*5E
$GNRMC,073138.70,D,3105.79960201,N,12117.46413248,E,1.021,217.4,280326,6.5,W,R,S*5E
$GNGST,073138.70,1.40,0.01,0.01,53.1516,0.010,0.012,0.026*76
$GNGGA,073138.80,3105.79958176,N,12117.46410645,E,4,31,0.7,3.7508,M,11.0488,M,0.8,74*55
$GNRMC,073138.80,D,3105.79958176,N,12117.46410645,E,1.058,227.4,280326,6.5,W,R,S*5E
$GNGST,073138.80,1.40,0.01,0.01,53.1627,0.010,0.012,0.026*78
$GNGGA,073138.90,3105.79956324,N,12117.46407729,E,4,31,0.7,3.7493,M,11.0488,M,0.9,74*50
$GNRMC,073138.90,D,3105.79956324,N,12117.46407729,E,1.073,236.1,280326,6.5,W,R,S*55
$GNGST,073138.90,1.40,0.01,0.01,53.1511,0.010,0.012,0.026*7F
$GNGGA,073139.00,3105.79954330,N,12117.46404553,E,4,31,0.7,3.7369,M,11.0488,M,1.0,74*59
$GNRMC,073139.00,D,3105.79954330,N,12117.46404553,E,1.144,237.9,280326,6.5,W,R,S*5A
$GNGST,073139.00,1.40,0.01,0.01,53.1305,0.010,0.012,0.026*74
$GNGGA,073139.10,3105.79952068,N,12117.46401085,E,4,31,0.7,3.7305,M,11.0488,M,1.1,74*50
